[
  { "name": "Omrane",            "lat": 31.912499, "lng": -4.475555 },
  { "name": "Ould Tkir",         "lat": 31.914549, "lng": -4.466566 },
  { "name": "Tinnite",           "lat": 31.916998, "lng": -4.455471 },
  { "name": "Lot Safaa",         "lat": 31.91252,  "lng": -4.452714 },
  { "name": "Lot Oued Eddahab",  "lat": 31.91678,  "lng": -4.445313 },
  { "name": "Ait Ba Mouha",      "lat": 31.923506, "lng": -4.449096 },
  { "name": "Marjane",           "lat": 31.931450, "lng": -4.453025 },
  { "name": "Enkebi",            "lat": 31.933180, "lng": -4.454338 },
  { "name": "Aain El Ati",       "lat": 31.936514, "lng": -4.456833 },
  { "name": "Amazouj",           "lat": 31.943290, "lng": -4.463194 },
  { "name": "Lot Filaha",        "lat": 31.946194, "lng": -4.460259 },
  { "name": "Université",        "lat": 31.943941, "lng": -4.457510 },
  { "name": "Azemour El jadid",  "lat": 31.937893, "lng": -4.449035 },
  { "name": "Targa El jadida",   "lat": 31.930593, "lng": -4.444762 },
  { "name": "Boutalamine",       "lat": 31.923813, "lng": -4.437529 },
  { "name": "ANAPEC",            "lat": 31.923677, "lng": -4.432865 },
  { "name": "Ocean",             "lat": 31.929715, "lng": -4.433757 },
  { "name": "Bachaouia",         "lat": 31.934488, "lng": -4.430685 },
  { "name": "Grande Salle",      "lat": 31.934961, "lng": -4.428972 },
  { "name": "Wilaya",            "lat": 31.933392, "lng": -4.426176 },
  { "name": "Marché",            "lat": 31.930882, "lng": -4.425423 },
  { "name": "Gare Routière",     "lat": 31.929450, "lng": -4.426895 },
  { "name": "Souk Hebdomadaires","lat": 31.927265, "lng": -4.425809 },
  { "name": "Lot Baladia",       "lat": 31.924171, "lng": -4.424071 },
  { "name": "Hay Al massira",    "lat": 31.920687, "lng": -4.421605 },
  { "name": "Ain El Ati",        "lat": 31.918889, "lng": -4.419899 },
  { "name": "Hay Nahda",         "lat": 31.914808, "lng": -4.415547 },
  { "name": "Beni Fouss",        "lat": 31.905939, "lng": -4.401637 },
  { "name": "Garaison FAR",      "lat": 31.903149, "lng": -4.395292 },
  { "name": "Beni Mhali",        "lat": 31.896044, "lng": -4.380568 },
  { "name": "Asrir",             "lat": 31.889786, "lng": -4.372822 },
  { "name": "Ahibous",           "lat": 31.883112, "lng": -4.355333 },
  { "name": "Sijlimassa",        "lat": 31.928158, "lng": -4.428307 },
  { "name": "CHU",               "lat": 31.939495, "lng": -4.418710 },
  { "name": "Ouled El haj",      "lat": 31.935163, "lng": -4.409404 },
  { "name": "Zaouia",            "lat": 31.932652, "lng": -4.396891 },
  { "name": "Ait massoud",       "lat": 31.928358, "lng": -4.389008 },
  { "name": "Lakssiba",          "lat": 31.921785, "lng": -4.379182 },
  { "name": "Taourirte",         "lat": 31.917810, "lng": -4.373035 },
  { "name": "Si Bouabdellah",    "lat": 31.909958, "lng": -4.361166 },
  { "name": "Tittaf",            "lat": 31.902281, "lng": -4.348846 },
  { "name": "Ouled M'hamed",     "lat": 31.898537, "lng": -4.337279 },
  { "name": "Beni Moussa",       "lat": 31.888775, "lng": -4.321699 },
  { "name": "Tazenakht",         "lat": 31.880617, "lng": -4.310763 },
  { "name": "Meski",             "lat": 31.856628, "lng": -4.281703 },
  { "name": "My Mhamed",         "lat": 31.903357, "lng": -4.436910 },
  { "name": "Keba",              "lat": 31.902372, "lng": -4.426981 },
  { "name": "Timzoughine",       "lat": 31.896530, "lng": -4.418815 },
  { "name": "Sarghine",          "lat": 31.907454, "lng": -4.424099 },
  { "name": "Lot Oued Lahmar",   "lat": 31.917643, "lng": -4.428501 },
  { "name": "Touchka",           "lat": 31.939941, "lng": -4.422594 },
  { "name": "ISTA",              "lat": 31.945606, "lng": -4.412551 },
  { "name": "Ksar El jadid",     "lat": 31.964907, "lng": -4.443996 },
  { "name": "Rahba",             "lat": 31.969852, "lng": -4.454921 },
  { "name": "Tighourine",        "lat": 31.977215, "lng": -4.456809 },
  { "name": "Tazouka",           "lat": 31.981653, "lng": -4.467121 },
  { "name": "Mochklal",          "lat": 31.968695, "lng": -4.473246 },
  { "name": "Tizegdalt",         "lat": 31.959091, "lng": -4.466191 }
]
